{
  "GetBA_LocationsResponse": {
    "Country": [{
      "CountryName": "United Arab Emirates",
      "CountryCode": "AE",
      "City": [{
        "CityName": "Abu Dhabi",
        "CityCode": "AUH",
        "Position": {
          "Latitude": 0,
          "Longitude": 0
        },
        "Airport": {
          "AirportName": "Abu Dhabi",
          "AirportCode": "AUH",
          "Position": {
            "Latitude": 24.43,
            "Longitude": 54.65
          }
        }
      }, {
        "CityName": "Dubai",
        "CityCode": "DXB",
        "Position": {
          "Latitude": 0,
          "Longitude": 0
        },
        "Airport": {
          "AirportName": "Dubai",
          "AirportCode": "DXB",
          "Position": {
            "Latitude": 25.25,
            "Longitude": 55.36
          }
        }
      }]
    }, {
      "CountryName": "Antigua",
      "CountryCode": "AG",
      "City": {
        "CityName": "Antigua",
        "CityCode": "ANU",
        "Position": {
          "Latitude": 0,
          "Longitude": 0
        },
        "Airport": {
          "AirportName": "Antigua",
          "AirportCode": "ANU",
          "Position": {
            "Latitude": 17.14,
            "Longitude": -61.79
          }
        }
      }
    }, {
      "CountryName": "Albania",
      "CountryCode": "AL",
      "City": {
        "CityName": "Tirana",
        "CityCode": "TIA",
        "Position": {
          "Latitude": 0,
          "Longitude": 0
        },
        "Airport": {
          "AirportName": "Tirana",
          "AirportCode": "TIA",
          "Position": {
            "Latitude": 41.41,
            "Longitude": 19.72
          }
        }
      }
    }, {
      "CountryName": "Angola",
      "CountryCode": "AO",
      "City": {
        "CityName": "Luanda",
        "CityCode": "LAD",
        "Position": {
          "Latitude": 0,
          "Longitude": 0
        },
        "Airport": {
          "AirportName": "Luanda",
          "AirportCode": "LAD",
          "Position": {
            "Latitude": -8.86,
            "Longitude": 13.23
          }
        }
      }
    }, {
      "CountryName": "Argentina",
      "CountryCode": "AR",
      "City": {
        "CityName": "Buenos Aires",
        "CityCode": "BUE",
        "Position": {
          "Latitude": 0,
          "Longitude": 0
        },
        "Airport": {
          "AirportName": "Buenos Aires",
          "AirportCode": "EZE",
          "Position": {
            "Latitude": -34.82,
            "Longitude": -58.54
          }
        }
      }
    }, {
      "CountryName": "Austria",
      "CountryCode": "AT",
      "City": [{
        "CityName": "Salzburg",
        "CityCode": "SZG",
        "Position": {
          "Latitude": 0,
          "Longitude": 0
        },
        "Airport": {
          "AirportName": "Salzburg",
          "AirportCode": "SZG",
          "Position": {
            "Latitude": 47.79,
            "Longitude": 13
          }
        }
      }, {
        "CityName": "Vienna",
        "CityCode": "VIE",
        "Position": {
          "Latitude": 0,
          "Longitude": 0
        },
        "Airport": {
          "AirportName": "Vienna",
          "AirportCode": "VIE",
          "Position": {
            "Latitude": 48.11,
            "Longitude": 16.57
          }
        }
      }]
    }, {
      "CountryName": "Australia",
      "CountryCode": "AU",
      "City": [{
        "CityName": "Adelaide",
        "CityCode": "ADL",
        "Position": {
          "Latitude": 0,
          "Longitude": 0
        },
        "Airport": {
          "AirportName": "Adelaide",
          "AirportCode": "ADL",
          "Position": {
            "Latitude": -34.95,
            "Longitude": 138.53
          }
        }
      }, {
        "CityName": "Brisbane",
        "CityCode": "BNE",
        "Position": {
          "Latitude": 0,
          "Longitude": 0
        },
        "Airport": {
          "AirportName": "Brisbane",
          "AirportCode": "BNE",
          "Position": {
            "Latitude": -27.38,
            "Longitude": 153.12
          }
        }
      }, {
        "CityName": "Canberra",
        "CityCode": "CBR",
        "Position": {
          "Latitude": 0,
          "Longitude": 0
        },
        "Airport": {
          "AirportName": "Canberra",
          "AirportCode": "CBR",
          "Position": {
            "Latitude": -35.31,
            "Longitude": 149.2
          }
        }
      }, {
        "CityName": "Coffs Harbour",
        "CityCode": "CFS",
        "Position": {
          "Latitude": 0,
          "Longitude": 0
        },
        "Airport": {
          "AirportName": "Coffs Harbour",
          "AirportCode": "CFS",
          "Position": {
            "Latitude": -30.32,
            "Longitude": 153.12
          }
        }
      }, {
        "CityName": "Cairns",
        "CityCode": "CNS",
        "Position": {
          "Latitude": 0,
          "Longitude": 0
        },
        "Airport": {
          "AirportName": "Cairns",
          "AirportCode": "CNS",
          "Position": {
            "Latitude": -16.89,
            "Longitude": 145.76
          }
        }
      }, {
        "CityName": "Hobart",
        "CityCode": "HBA",
        "Position": {
          "Latitude": 0,
          "Longitude": 0
        },
        "Airport": {
          "AirportName": "Hobart",
          "AirportCode": "HBA",
          "Position": {
            "Latitude": -42.84,
            "Longitude": 147.51
          }
        }
      }, {
        "CityName": "Melbourne",
        "CityCode": "MEL",
        "Position": {
          "Latitude": 0,
          "Longitude": 0
        },
        "Airport": {
          "AirportName": "Melbourne",
          "AirportCode": "MEL",
          "Position": {
            "Latitude": -37.67,
            "Longitude": 144.84
          }
        }
      }, {
        "CityName": "Gold Coast",
        "CityCode": "OOL",
        "Position": {
          "Latitude": 0,
          "Longitude": 0
        },
        "Airport": {
          "AirportName": "Gold Coast",
          "AirportCode": "OOL",
          "Position": {
            "Latitude": -28.16,
            "Longitude": 153.5
          }
        }
      }, {
        "CityName": "Perth",
        "CityCode": "PER",
        "Position": {
          "Latitude": 0,
          "Longitude": 0
        },
        "Airport": {
          "AirportName": "Perth",
          "AirportCode": "PER",
          "Position": {
            "Latitude": -31.94,
            "Longitude": 115.97
          }
        }
      }, {
        "CityName": "Sydney",
        "CityCode": "SYD",
        "Position": {
          "Latitude": 0,
          "Longitude": 0
        },
        "Airport": {
          "AirportName": "Sydney",
          "AirportCode": "SYD",
          "Position": {
            "Latitude": -33.95,
            "Longitude": 151.18
          }
        }
      }]
    }, {
      "CountryName": "Aruba",
      "CountryCode": "AW",
      "City": {
        "CityName": "Aruba",
        "CityCode": "AUA",
        "Position": {
          "Latitude": 0,
          "Longitude": 0
        },
        "Airport": {
          "AirportName": "Aruba",
          "AirportCode": "AUA",
          "Position": {
            "Latitude": 12.5,
            "Longitude": -70.02
          }
        }
      }
    }, {
      "CountryName": "Azerbaijan",
      "CountryCode": "AZ",
      "City": {
        "CityName": "Baku",
        "CityCode": "BAK",
        "Position": {
          "Latitude": 0,
          "Longitude": 0
        },
        "Airport": {
          "AirportName": "Baku",
          "AirportCode": "GYD",
          "Position": {
            "Latitude": 40.47,
            "Longitude": 50.05
          }
        }
      }
    }, {
      "CountryName": "Barbados",
      "CountryCode": "BB",
      "City": {
        "CityName": "Bridgetown (Barbados)",
        "CityCode": "BGI",
        "Position": {
          "Latitude": 0,
          "Longitude": 0
        },
        "Airport": {
          "AirportName": "Bridgetown",
          "AirportCode": "BGI",
          "Position": {
            "Latitude": 13.07,
            "Longitude": -59.49
          }
        }
      }
    }, {
      "CountryName": "Bangladesh",
      "CountryCode": "BD",
      "City": {
        "CityName": "Dhaka",
        "CityCode": "DAC",
        "Position": {
          "Latitude": 0,
          "Longitude": 0
        },
        "Airport": {
          "AirportName": "Hazrat Shahjalal Intl",
          "AirportCode": "DAC",
          "Position": {
            "Latitude": 23.84,
            "Longitude": 90.4
          }
        }
      }
    }, {
      "CountryName": "Belgium",
      "CountryCode": "BE",
      "City": {
        "CityName": "Brussels",
        "CityCode": "BRU",
        "Position": {
          "Latitude": 0,
          "Longitude": 0
        },
        "Airport": {
          "AirportName": "Brussels",
          "AirportCode": "BRU",
          "Position": {
            "Latitude": 50.9,
            "Longitude": 4.48
          }
        }
      }
    }, {
      "CountryName": "Bulgaria",
      "CountryCode": "BG",
      "City": {
        "CityName": "Sofia",
        "CityCode": "SOF",
        "Position": {
          "Latitude": 0,
          "Longitude": 0
        },
        "Airport": {
          "AirportName": "Sofia",
          "AirportCode": "SOF",
          "Position": {
            "Latitude": 42.8,
            "Longitude": 23.05
          }
        }
      }
    }, {
      "CountryName": "Bahrain",
      "CountryCode": "BH",
      "City": {
        "CityName": "Bahrain",
        "CityCode": "BAH",
        "Position": {
          "Latitude": 0,
          "Longitude": 0
        },
        "Airport": {
          "AirportName": "Bahrain",
          "AirportCode": "BAH",
          "Position": {
            "Latitude": 26.27,
            "Longitude": 50.63
          }
        }
      }
    }, {
      "CountryName": "Bermuda",
      "CountryCode": "BM",
      "City": {
        "CityName": "Bermuda",
        "CityCode": "BDA",
        "Position": {
          "Latitude": 0,
          "Longitude": 0
        },
        "Airport": {
          "AirportName": "Bermuda",
          "AirportCode": "BDA",
          "Position": {
            "Latitude": 32.36,
            "Longitude": -64.68
          }
        }
      }
    }, {
      "CountryName": "Brazil",
      "CountryCode": "BR",
      "City": [{
        "CityName": "Rio de Janeiro       ",
        "CityCode": "RIO",
        "Position": {
          "Latitude": 0,
          "Longitude": 0
        },
        "Airport": {
          "AirportName": "Rio De janeiro Intl",
          "AirportCode": "GIG",
          "Position": {
            "Latitude": -22.81,
            "Longitude": -43.25
          }
        }
      }, {
        "CityName": "Sao Paulo",
        "CityCode": "SAO",
        "Position": {
          "Latitude": 0,
          "Longitude": 0
        },
        "Airport": {
          "AirportName": "Guarulhos Intl",
          "AirportCode": "GRU",
          "Position": {
            "Latitude": -23.44,
            "Longitude": -46.47
          }
        }
      }]
    }, {
      "CountryName": "Bahamas",
      "CountryCode": "BS",
      "City": {
        "CityName": "Nassau",
        "CityCode": "NAS",
        "Position": {
          "Latitude": 0,
          "Longitude": 0
        },
        "Airport": {
          "AirportName": "Nassau",
          "AirportCode": "NAS",
          "Position": {
            "Latitude": 25.04,
            "Longitude": -77.47
          }
        }
      }
    }, {
      "CountryName": "Belize",
      "CountryCode": "BZ",
      "City": {
        "CityName": "Belize City",
        "CityCode": "BZE",
        "Position": {
          "Latitude": 0,
          "Longitude": 0
        },
        "Airport": {
          "AirportName": "P.S.W. Goldson Intl",
          "AirportCode": "BZE",
          "Position": {
            "Latitude": 17.54,
            "Longitude": -88.31
          }
        }
      }
    }, {
      "CountryName": "Canada",
      "CountryCode": "CA",
      "City": [{
        "CityName": "Montreal",
        "CityCode": "YMQ",
        "Position": {
          "Latitude": 0,
          "Longitude": 0
        },
        "Airport": {
          "AirportName": "Montreal",
          "AirportCode": "YUL",
          "Position": {
            "Latitude": 45.47,
            "Longitude": -73.74
          }
        }
      }, {
        "CityName": "Toronto",
        "CityCode": "YTO",
        "Position": {
          "Latitude": 0,
          "Longitude": 0
        },
        "Airport": {
          "AirportName": "Toronto",
          "AirportCode": "YYZ",
          "Position": {
            "Latitude": 43.68,
            "Longitude": -79.63
          }
        }
      }, {
        "CityName": "Vancouver",
        "CityCode": "YVR",
        "Position": {
          "Latitude": 0,
          "Longitude": 0
        },
        "Airport": {
          "AirportName": "Vancouver",
          "AirportCode": "YVR",
          "Position": {
            "Latitude": 49.19,
            "Longitude": -123.18
          }
        }
      }, {
        "CityName": "Calgary",
        "CityCode": "YYC",
        "Position": {
          "Latitude": 0,
          "Longitude": 0
        },
        "Airport": {
          "AirportName": "Calgary",
          "AirportCode": "YYC",
          "Position": {
            "Latitude": 51.11,
            "Longitude": -114.02
          }
        }
      }]
    }, {
      "CountryName": "Switzerland",
      "CountryCode": "CH",
      "City": [{
        "CityName": "Basel",
        "CityCode": "BSL",
        "Position": {
          "Latitude": 0,
          "Longitude": 0
        },
        "Airport": {
          "AirportName": "Basel",
          "AirportCode": "BSL",
          "Position": {
            "Latitude": 47.59,
            "Longitude": 7.53
          }
        }
      }, {
        "CityName": "Geneva",
        "CityCode": "GVA",
        "Position": {
          "Latitude": 0,
          "Longitude": 0
        },
        "Airport": {
          "AirportName": "Geneva",
          "AirportCode": "GVA",
          "Position": {
            "Latitude": 46.24,
            "Longitude": 6.11
          }
        }
      }, {
        "CityName": "Zurich",
        "CityCode": "ZRH",
        "Position": {
          "Latitude": 0,
          "Longitude": 0
        },
        "Airport": {
          "AirportName": "Zurich",
          "AirportCode": "ZRH",
          "Position": {
            "Latitude": 47.46,
            "Longitude": 8.55
          }
        }
      }]
    }, {
      "CountryName": "Chile",
      "CountryCode": "CL",
      "City": {
        "CityName": "Santiago",
        "CityCode": "SCL",
        "Position": {
          "Latitude": 0,
          "Longitude": 0
        },
        "Airport": {
          "AirportName": "Santiago",
          "AirportCode": "SCL",
          "Position": {
            "Latitude": -33.39,
            "Longitude": -70.79
          }
        }
      }
    }, {
      "CountryName": "China",
      "CountryCode": "CN",
      "City": [{
        "CityName": "Beijing",
        "CityCode": "BJS",
        "Position": {
          "Latitude": 0,
          "Longitude": 0
        },
        "Airport": {
          "AirportName": "Beijing",
          "AirportCode": "PEK",
          "Position": {
            "Latitude": 40.07,
            "Longitude": 116.6
          }
        }
      }, {
        "CityName": "Chengdu",
        "CityCode": "CTU",
        "Position": {
          "Latitude": 0,
          "Longitude": 0
        },
        "Airport": {
          "AirportName": "Chengdu",
          "AirportCode": "CTU",
          "Position": {
            "Latitude": 30.58,
            "Longitude": 103.95
          }
        }
      }, {
        "CityName": "Shanghai",
        "CityCode": "SHA",
        "Position": {
          "Latitude": 0,
          "Longitude": 0
        },
        "Airport": {
          "AirportName": "Pu Dong",
          "AirportCode": "PVG",
          "Position": {
            "Latitude": 31.15,
            "Longitude": 121.79
          }
        }
      }]
    }, {
      "CountryName": "Colombia",
      "CountryCode": "CO",
      "City": {
        "CityName": "Bogota",
        "CityCode": "BOG",
        "Position": {
          "Latitude": 0,
          "Longitude": 0
        },
        "Airport": {
          "AirportName": "Bogota",
          "AirportCode": "BOG",
          "Position": {
            "Latitude": 4.7,
            "Longitude": -74.15
          }
        }
      }
    }, {
      "CountryName": "Costa Rica",
      "CountryCode": "CR",
      "City": {
        "CityName": "San Jose (Costa Rica)",
        "CityCode": "SJO",
        "Position": {
          "Latitude": 0,
          "Longitude": 0
        },
        "Airport": {
          "AirportName": "San Jose",
          "AirportCode": "SJO",
          "Position": {
            "Latitude": 9.99,
            "Longitude": -84.21
          }
        }
      }
    }, {
      "CountryName": "Cyprus",
      "CountryCode": "CY",
      "City": [{
        "CityName": "Larnaca",
        "CityCode": "LCA",
        "Position": {
          "Latitude": 0,
          "Longitude": 0
        },
        "Airport": {
          "AirportName": "Larnaca",
          "AirportCode": "LCA",
          "Position": {
            "Latitude": 34.88,
            "Longitude": 33.63
          }
        }
      }, {
        "CityName": "Paphos",
        "CityCode": "PFO",
        "Position": {
          "Latitude": 0,
          "Longitude": 0
        },
        "Airport": {
          "AirportName": "Paphos",
          "AirportCode": "PFO",
          "Position": {
            "Latitude": 34.72,
            "Longitude": 32.49
          }
        }
      }]
    }, {
      "CountryName": "Czech Republic",
      "CountryCode": "CZ",
      "City": {
        "CityName": "Prague",
        "CityCode": "PRG",
        "Position": {
          "Latitude": 0,
          "Longitude": 0
        },
        "Airport": {
          "AirportName": "Prague",
          "AirportCode": "PRG",
          "Position": {
            "Latitude": 50.1,
            "Longitude": 14.26
          }
        }
      }
    }, {
      "CountryName": "Germany",
      "CountryCode": "DE",
      "City": [{
        "CityName": "Berlin",
        "CityCode": "BER",
        "Position": {
          "Latitude": 0,
          "Longitude": 0
        },
        "Airport": {
          "AirportName": "Tegel",
          "AirportCode": "TXL",
          "Position": {
            "Latitude": 52.56,
            "Longitude": 13.29
          }
        }
      }, {
        "CityName": "Cologne",
        "CityCode": "CGN",
        "Position": {
          "Latitude": 0,
          "Longitude": 0
        },
        "Airport": {
          "AirportName": "Cologne",
          "AirportCode": "CGN",
          "Position": {
            "Latitude": 50.87,
            "Longitude": 7.14
          }
        }
      }, {
        "CityName": "Dresden",
        "CityCode": "DRS",
        "Position": {
          "Latitude": 0,
          "Longitude": 0
        },
        "Airport": {
          "AirportName": "Dresden",
          "AirportCode": "DRS",
          "Position": {
            "Latitude": 51.13,
            "Longitude": 13.77
          }
        }
      }, {
        "CityName": "Dusseldorf",
        "CityCode": "DUS",
        "Position": {
          "Latitude": 0,
          "Longitude": 0
        },
        "Airport": {
          "AirportName": "Dusseldorf",
          "AirportCode": "DUS",
          "Position": {
            "Latitude": 51.28,
            "Longitude": 6.76
          }
        }
      }, {
        "CityName": "Frankfurt",
        "CityCode": "FRA",
        "Position": {
          "Latitude": 0,
          "Longitude": 0
        },
        "Airport": {
          "AirportName": "Frankfurt",
          "AirportCode": "FRA",
          "Position": {
            "Latitude": 50.03,
            "Longitude": 8.57
          }
        }
      }, {
        "CityName": "Hanover",
        "CityCode": "HAJ",
        "Position": {
          "Latitude": 0,
          "Longitude": 0
        },
        "Airport": {
          "AirportName": "Hanover",
          "AirportCode": "HAJ",
          "Position": {
            "Latitude": 52.46,
            "Longitude": 9.68
          }
        }
      }, {
        "CityName": "Hamburg",
        "CityCode": "HAM",
        "Position": {
          "Latitude": 0,
          "Longitude": 0
        },
        "Airport": {
          "AirportName": "Hamburg",
          "AirportCode": "HAM",
          "Position": {
            "Latitude": 53.63,
            "Longitude": 9.99
          }
        }
      }, {
        "CityName": "Munich",
        "CityCode": "MUC",
        "Position": {
          "Latitude": 0,
          "Longitude": 0
        },
        "Airport": {
          "AirportName": "Munich",
          "AirportCode": "MUC",
          "Position": {
            "Latitude": 48.35,
            "Longitude": 11.79
          }
        }
      }, {
        "CityName": "Nuremberg",
        "CityCode": "NUE",
        "Position": {
          "Latitude": 0,
          "Longitude": 0
        },
        "Airport": {
          "AirportName": "Nuremberg",
          "AirportCode": "NUE",
          "Position": {
            "Latitude": 49.5,
            "Longitude": 11.07
          }
        }
      }, {
        "CityName": "Stuttgart",
        "CityCode": "STR",
        "Position": {
          "Latitude": 0,
          "Longitude": 0
        },
        "Airport": {
          "AirportName": "Stuttgart",
          "AirportCode": "STR",
          "Position": {
            "Latitude": 48.69,
            "Longitude": 9.22
          }
        }
      }]
    }, {
      "CountryName": "Denmark",
      "CountryCode": "DK",
      "City": [{
        "CityName": "Aalborg",
        "CityCode": "AAL",
        "Position": {
          "Latitude": 0,
          "Longitude": 0
        },
        "Airport": {
          "AirportName": "Aalborg",
          "AirportCode": "AAL",
          "Position": {
            "Latitude": 57.09,
            "Longitude": 9.85
          }
        }
      }, {
        "CityName": "Aarhus",
        "CityCode": "AAR",
        "Position": {
          "Latitude": 0,
          "Longitude": 0
        },
        "Airport": {
          "AirportName": "Aarhus",
          "AirportCode": "AAR",
          "Position": {
            "Latitude": 56.3,
            "Longitude": 10.62
          }
        }
      }, {
        "CityName": "Billund",
        "CityCode": "BLL",
        "Position": {
          "Latitude": 0,
          "Longitude": 0
        },
        "Airport": {
          "AirportName": "Billund",
          "AirportCode": "BLL",
          "Position": {
            "Latitude": 55.74,
            "Longitude": 9.15
          }
        }
      }, {
        "CityName": "Copenhagen",
        "CityCode": "CPH",
        "Position": {
          "Latitude": 0,
          "Longitude": 0
        },
        "Airport": {
          "AirportName": "Copenhagen",
          "AirportCode": "CPH",
          "Position": {
            "Latitude": 55.62,
            "Longitude": 12.66
          }
        }
      }]
    }, {
      "CountryName": "Dominican Rep",
      "CountryCode": "DO",
      "City": [{
        "CityName": "Puerto Plata",
        "CityCode": "POP",
        "Position": {
          "Latitude": 0,
          "Longitude": 0
        },
        "Airport": {
          "AirportName": "Puerto Plata",
          "AirportCode": "POP",
          "Position": {
            "Latitude": 19.76,
            "Longitude": -70.57
          }
        }
      }, {
        "CityName": "Punta Cana",
        "CityCode": "PUJ",
        "Position": {
          "Latitude": 0,
          "Longitude": 0
        },
        "Airport": {
          "AirportName": "Punta Cana",
          "AirportCode": "PUJ",
          "Position": {
            "Latitude": 18.57,
            "Longitude": -68.37
          }
        }
      }, {
        "CityName": "Santo Domingo",
        "CityCode": "SDQ",
        "Position": {
          "Latitude": 0,
          "Longitude": 0
        },
        "Airport": {
          "AirportName": "Santo Domingo",
          "AirportCode": "SDQ",
          "Position": {
            "Latitude": 18.43,
            "Longitude": -69.67
          }
        }
      }]
    }, {
      "CountryName": "Algeria",
      "CountryCode": "DZ",
      "City": {
        "CityName": "Algiers",
        "CityCode": "ALG",
        "Position": {
          "Latitude": 0,
          "Longitude": 0
        },
        "Airport": {
          "AirportName": "Algiers",
          "AirportCode": "ALG",
          "Position": {
            "Latitude": 36.69,
            "Longitude": 3.21
          }
        }
      }
    }, {
      "CountryName": "Estonia",
      "CountryCode": "EE",
      "City": {
        "CityName": "Tallinn",
        "CityCode": "TLL",
        "Position": {
          "Latitude": 0,
          "Longitude": 0
        },
        "Airport": {
          "AirportName": "Tallinn",
          "AirportCode": "TLL",
          "Position": {
            "Latitude": 59.41,
            "Longitude": 24.83
          }
        }
      }
    }, {
      "CountryName": "Egypt",
      "CountryCode": "EG",
      "City": {
        "CityName": "Cairo",
        "CityCode": "CAI",
        "Position": {
          "Latitude": 0,
          "Longitude": 0
        },
        "Airport": {
          "AirportName": "Cairo",
          "AirportCode": "CAI",
          "Position": {
            "Latitude": 30.11,
            "Longitude": 31.41
          }
        }
      }
    }, {
      "CountryName": "Spain",
      "CountryCode": "ES",
      "City": [{
        "CityName": "Arrecife",
        "CityCode": "ACE",
        "Position": {
          "Latitude": 0,
          "Longitude": 0
        },
        "Airport": {
          "AirportName": "Arrecife",
          "AirportCode": "ACE",
          "Position": {
            "Latitude": 28.95,
            "Longitude": -13.61
          }
        }
      }, {
        "CityName": "Malaga",
        "CityCode": "AGP",
        "Position": {
          "Latitude": 0,
          "Longitude": 0
        },
        "Airport": {
          "AirportName": "Malaga",
          "AirportCode": "AGP",
          "Position": {
            "Latitude": 36.67,
            "Longitude": -4.5
          }
        }
      }, {
        "CityName": "Alicante",
        "CityCode": "ALC",
        "Position": {
          "Latitude": 0,
          "Longitude": 0
        },
        "Airport": {
          "AirportName": "Alicante",
          "AirportCode": "ALC",
          "Position": {
            "Latitude": 38.28,
            "Longitude": -0.56
          }
        }
      }, {
        "CityName": "Barcelona",
        "CityCode": "BCN",
        "Position": {
          "Latitude": 0,
          "Longitude": 0
        },
        "Airport": {
          "AirportName": "Barcelona",
          "AirportCode": "BCN",
          "Position": {
            "Latitude": 41.3,
            "Longitude": 2.08
          }
        }
      }, {
        "CityName": "Bilbao",
        "CityCode": "BIO",
        "Position": {
          "Latitude": 0,
          "Longitude": 0
        },
        "Airport": {
          "AirportName": "Bilbao",
          "AirportCode": "BIO",
          "Position": {
            "Latitude": 43.3,
            "Longitude": -2.91
          }
        }
      }, {
        "CityName": "San Sebastian",
        "CityCode": "EAS",
        "Position": {
          "Latitude": 0,
          "Longitude": 0
        },
        "Airport": {
          "AirportName": "San Sebastian",
          "AirportCode": "EAS",
          "Position": {
            "Latitude": 43.36,
            "Longitude": -1.79
          }
        }
      }, {
        "CityName": "Fuerteventura",
        "CityCode": "FUE",
        "Position": {
          "Latitude": 0,
          "Longitude": 0
        },
        "Airport": {
          "AirportName": "Fuerteventura",
          "AirportCode": "FUE",
          "Position": {
            "Latitude": 28.45,
            "Longitude": -13.86
          }
        }
      }, {
        "CityName": "Granada",
        "CityCode": "GRX",
        "Position": {
          "Latitude": 0,
          "Longitude": 0
        },
        "Airport": {
          "AirportName": "Granada",
          "AirportCode": "GRX",
          "Position": {
            "Latitude": 37.19,
            "Longitude": -3.78
          }
        }
      }, {
        "CityName": "Ibiza",
        "CityCode": "IBZ",
        "Position": {
          "Latitude": 0,
          "Longitude": 0
        },
        "Airport": {
          "AirportName": "Ibiza",
          "AirportCode": "IBZ",
          "Position": {
            "Latitude": 38.87,
            "Longitude": 1.37
          }
        }
      }, {
        "CityName": "La Coruna",
        "CityCode": "LCG",
        "Position": {
          "Latitude": 0,
          "Longitude": 0
        },
        "Airport": {
          "AirportName": "La Coruna",
          "AirportCode": "LCG",
          "Position": {
            "Latitude": 43.3,
            "Longitude": -8.38
          }
        }
      }, {
        "CityName": "Almeria",
        "CityCode": "LEI",
        "Position": {
          "Latitude": 0,
          "Longitude": 0
        },
        "Airport": {
          "AirportName": "Almeria",
          "AirportCode": "LEI",
          "Position": {
            "Latitude": 36.84,
            "Longitude": -2.37
          }
        }
      }, {
        "CityName": "Gran Canaria",
        "CityCode": "LPA",
        "Position": {
          "Latitude": 0,
          "Longitude": 0
        },
        "Airport": {
          "AirportName": "Gran Canaria",
          "AirportCode": "LPA",
          "Position": {
            "Latitude": 27.93,
            "Longitude": -15.39
          }
        }
      }, {
        "CityName": "Madrid",
        "CityCode": "MAD",
        "Position": {
          "Latitude": 0,
          "Longitude": 0
        },
        "Airport": {
          "AirportName": "Madrid",
          "AirportCode": "MAD",
          "Position": {
            "Latitude": 40.47,
            "Longitude": -3.56
          }
        }
      }, {
        "CityName": "Menorca",
        "CityCode": "MAH",
        "Position": {
          "Latitude": 0,
          "Longitude": 0
        },
        "Airport": {
          "AirportName": "Menorca",
          "AirportCode": "MAH",
          "Position": {
            "Latitude": 39.86,
            "Longitude": 4.22
          }
        }
      }, {
        "CityName": "Asturias",
        "CityCode": "OVD",
        "Position": {
          "Latitude": 0,
          "Longitude": 0
        },
        "Airport": {
          "AirportName": "Asturias",
          "AirportCode": "OVD",
          "Position": {
            "Latitude": 43.56,
            "Longitude": -6.03
          }
        }
      }, {
        "CityName": "Palma",
        "CityCode": "PMI",
        "Position": {
          "Latitude": 0,
          "Longitude": 0
        },
        "Airport": {
          "AirportName": "Palma",
          "AirportCode": "PMI",
          "Position": {
            "Latitude": 39.55,
            "Longitude": 2.74
          }
        }
      }, {
        "CityName": "Pamplona",
        "CityCode": "PNA",
        "Position": {
          "Latitude": 0,
          "Longitude": 0
        },
        "Airport": {
          "AirportName": "Pamplona",
          "AirportCode": "PNA",
          "Position": {
            "Latitude": 42.77,
            "Longitude": -1.65
          }
        }
      }, {
        "CityName": "Reus",
        "CityCode": "REU",
        "Position": {
          "Latitude": 0,
          "Longitude": 0
        },
        "Airport": {
          "AirportName": "Reus",
          "AirportCode": "REU",
          "Position": {
            "Latitude": 41.15,
            "Longitude": 1.17
          }
        }
      }, {
        "CityName": "Santiago De Compostela",
        "CityCode": "SCQ",
        "Position": {
          "Latitude": 0,
          "Longitude": 0
        },
        "Airport": {
          "AirportName": "Santiago De Compostela",
          "AirportCode": "SCQ",
          "Position": {
            "Latitude": 42.9,
            "Longitude": -8.42
          }
        }
      }, {
        "CityName": "Santander",
        "CityCode": "SDR",
        "Position": {
          "Latitude": 0,
          "Longitude": 0
        },
        "Airport": {
          "AirportName": "Santander",
          "AirportCode": "SDR",
          "Position": {
            "Latitude": 43.43,
            "Longitude": -3.82
          }
        }
      }, {
        "CityName": "Santa Cruz de la Palma",
        "CityCode": "SPC",
        "Position": {
          "Latitude": 0,
          "Longitude": 0
        },
        "Airport": {
          "AirportName": "La Palma",
          "AirportCode": "SPC",
          "Position": {
            "Latitude": 28.63,
            "Longitude": -17.76
          }
        }
      }, {
        "CityName": "Seville",
        "CityCode": "SVQ",
        "Position": {
          "Latitude": 0,
          "Longitude": 0
        },
        "Airport": {
          "AirportName": "Seville",
          "AirportCode": "SVQ",
          "Position": {
            "Latitude": 37.42,
            "Longitude": -5.9
          }
        }
      }, {
        "CityName": "Tenerife",
        "CityCode": "TCI",
        "Position": {
          "Latitude": 0,
          "Longitude": 0
        },
        "Airport": [{
          "AirportName": "Norte Los Rodeos",
          "AirportCode": "TFN",
          "Position": {
            "Latitude": 28.48,
            "Longitude": -16.34
          }
        }, {
          "AirportName": "Sur Reina Sofia",
          "AirportCode": "TFS",
          "Position": {
            "Latitude": 28.04,
            "Longitude": -16.57
          }
        }]
      }, {
        "CityName": "Vigo",
        "CityCode": "VGO",
        "Position": {
          "Latitude": 0,
          "Longitude": 0
        },
        "Airport": {
          "AirportName": "Vigo",
          "AirportCode": "VGO",
          "Position": {
            "Latitude": 42.23,
            "Longitude": -8.63
          }
        }
      }, {
        "CityName": "Valencia",
        "CityCode": "VLC",
        "Position": {
          "Latitude": 0,
          "Longitude": 0
        },
        "Airport": {
          "AirportName": "Valencia",
          "AirportCode": "VLC",
          "Position": {
            "Latitude": 39.49,
            "Longitude": -0.48
          }
        }
      }, {
        "CityName": "Jerez De La Frontera",
        "CityCode": "XRY",
        "Position": {
          "Latitude": 0,
          "Longitude": 0
        },
        "Airport": {
          "AirportName": "Jerez De La Frontera",
          "AirportCode": "XRY",
          "Position": {
            "Latitude": 36.74,
            "Longitude": -6.06
          }
        }
      }]
    }, {
      "CountryName": "Ethiopia",
      "CountryCode": "ET",
      "City": {
        "CityName": "Addis Ababa",
        "CityCode": "ADD",
        "Position": {
          "Latitude": 0,
          "Longitude": 0
        },
        "Airport": {
          "AirportName": "Addis Ababa",
          "AirportCode": "ADD",
          "Position": {
            "Latitude": 8.98,
            "Longitude": 38.8
          }
        }
      }
    }, {
      "CountryName": "Finland",
      "CountryCode": "FI",
      "City": [{
        "CityName": "Helsinki",
        "CityCode": "HEL",
        "Position": {
          "Latitude": 0,
          "Longitude": 0
        },
        "Airport": {
          "AirportName": "Helsinki",
          "AirportCode": "HEL",
          "Position": {
            "Latitude": 60.32,
            "Longitude": 24.96
          }
        }
      }, {
        "CityName": "Oulu",
        "CityCode": "OUL",
        "Position": {
          "Latitude": 0,
          "Longitude": 0
        },
        "Airport": {
          "AirportName": "Oulu",
          "AirportCode": "OUL",
          "Position": {
            "Latitude": 64.93,
            "Longitude": 25.36
          }
        }
      }]
    }, {
      "CountryName": "France",
      "CountryCode": "FR",
      "City": [{
        "CityName": "Angers",
        "CityCode": "ANE",
        "Position": {
          "Latitude": 0,
          "Longitude": 0
        },
        "Airport": {
          "AirportName": "Angers",
          "AirportCode": "ANE",
          "Position": {
            "Latitude": 47.56,
            "Longitude": -0.31
          }
        }
      }, {
        "CityName": "Bastia",
        "CityCode": "BIA",
        "Position": {
          "Latitude": 0,
          "Longitude": 0
        },
        "Airport": {
          "AirportName": "Bastia",
          "AirportCode": "BIA",
          "Position": {
            "Latitude": 42.55,
            "Longitude": 9.48
          }
        }
      }, {
        "CityName": "Bordeaux",
        "CityCode": "BOD",
        "Position": {
          "Latitude": 0,
          "Longitude": 0
        },
        "Airport": {
          "AirportName": "Bordeaux",
          "AirportCode": "BOD",
          "Position": {
            "Latitude": 44.83,
            "Longitude": -0.72
          }
        }
      }, {
        "CityName": "Figari",
        "CityCode": "FSC",
        "Position": {
          "Latitude": 0,
          "Longitude": 0
        },
        "Airport": {
          "AirportName": "Figari",
          "AirportCode": "FSC",
          "Position": {
            "Latitude": 41.5,
            "Longitude": 9.1
          }
        }
      }, {
        "CityName": "Lyon",
        "CityCode": "LYS",
        "Position": {
          "Latitude": 0,
          "Longitude": 0
        },
        "Airport": {
          "AirportName": "Lyon (Saint Exupery)",
          "AirportCode": "LYS",
          "Position": {
            "Latitude": 45.73,
            "Longitude": 5.08
          }
        }
      }, {
        "CityName": "Marseille",
        "CityCode": "MRS",
        "Position": {
          "Latitude": 0,
          "Longitude": 0
        },
        "Airport": {
          "AirportName": "Marseille",
          "AirportCode": "MRS",
          "Position": {
            "Latitude": 43.44,
            "Longitude": 5.22
          }
        }
      }, {
        "CityName": "Nice",
        "CityCode": "NCE",
        "Position": {
          "Latitude": 0,
          "Longitude": 0
        },
        "Airport": {
          "AirportName": "Nice",
          "AirportCode": "NCE",
          "Position": {
            "Latitude": 43.67,
            "Longitude": 7.22
          }
        }
      }, {
        "CityName": "Paris  ",
        "CityCode": "PAR",
        "Position": {
          "Latitude": 0,
          "Longitude": 0
        },
        "Airport": [{
          "AirportName": "Charles de Gaulle",
          "AirportCode": "CDG",
          "Position": {
            "Latitude": 49.01,
            "Longitude": 2.55
          }
        }, {
          "AirportName": "Orly",
          "AirportCode": "ORY",
          "Position": {
            "Latitude": 48.72,
            "Longitude": 2.38
          }
        }]
      }, {
        "CityName": "Toulouse",
        "CityCode": "TLS",
        "Position": {
          "Latitude": 0,
          "Longitude": 0
        },
        "Airport": {
          "AirportName": "Toulouse",
          "AirportCode": "TLS",
          "Position": {
            "Latitude": 43.64,
            "Longitude": 1.37
          }
        }
      }, {
        "CityName": "Quimper",
        "CityCode": "UIP",
        "Position": {
          "Latitude": 0,
          "Longitude": 0
        },
        "Airport": {
          "AirportName": "Cornouaille",
          "AirportCode": "UIP",
          "Position": {
            "Latitude": 47.98,
            "Longitude": -4.17
          }
        }
      }]
    }, {
      "CountryName": "United Kingdom",
      "CountryCode": "GB",
      "City": [{
        "CityName": "Aberdeen",
        "CityCode": "ABZ",
        "Position": {
          "Latitude": 0,
          "Longitude": 0
        },
        "Airport": {
          "AirportName": "Aberdeen",
          "AirportCode": "ABZ",
          "Position": {
            "Latitude": 57.2,
            "Longitude": -2.2
          }
        }
      }, {
        "CityName": "Belfast",
        "CityCode": "BFS",
        "Position": {
          "Latitude": 0,
          "Longitude": 0
        },
        "Airport": {
          "AirportName": "Belfast City Airport",
          "AirportCode": "BHD",
          "Position": {
            "Latitude": 54.62,
            "Longitude": -5.87
          }
        }
      }, {
        "CityName": "Birmingham",
        "CityCode": "BHX",
        "Position": {
          "Latitude": 0,
          "Longitude": 0
        },
        "Airport": {
          "AirportName": "Birmingham",
          "AirportCode": "BHX",
          "Position": {
            "Latitude": 52.45,
            "Longitude": -1.75
          }
        }
      }, {
        "CityName": "Cambridge",
        "CityCode": "CBG",
        "Position": {
          "Latitude": 0,
          "Longitude": 0
        },
        "Airport": {
          "AirportName": "Cambridge",
          "AirportCode": "CBG",
          "Position": {
            "Latitude": 52.21,
            "Longitude": 0.18
          }
        }
      }, {
        "CityName": "Cardiff",
        "CityCode": "CWL",
        "Position": {
          "Latitude": 0,
          "Longitude": 0
        },
        "Airport": {
          "AirportName": "Cardiff",
          "AirportCode": "CWL",
          "Position": {
            "Latitude": 51.4,
            "Longitude": -3.34
          }
        }
      }, {
        "CityName": "Edinburgh",
        "CityCode": "EDI",
        "Position": {
          "Latitude": 0,
          "Longitude": 0
        },
        "Airport": {
          "AirportName": "Edinburgh",
          "AirportCode": "EDI",
          "Position": {
            "Latitude": 55.95,
            "Longitude": -3.37
          }
        }
      }, {
        "CityName": "Glasgow",
        "CityCode": "GLA",
        "Position": {
          "Latitude": 0,
          "Longitude": 0
        },
        "Airport": {
          "AirportName": "Glasgow",
          "AirportCode": "GLA",
          "Position": {
            "Latitude": 55.87,
            "Longitude": -4.43
          }
        }
      }, {
        "CityName": "Humberside",
        "CityCode": "HUY",
        "Position": {
          "Latitude": 0,
          "Longitude": 0
        },
        "Airport": {
          "AirportName": "Humberside",
          "AirportCode": "HUY",
          "Position": {
            "Latitude": 53.57,
            "Longitude": -0.35
          }
        }
      }, {
        "CityName": "Isle of Man",
        "CityCode": "IOM",
        "Position": {
          "Latitude": 0,
          "Longitude": 0
        },
        "Airport": {
          "AirportName": "Isle of Man",
          "AirportCode": "IOM",
          "Position": {
            "Latitude": 54.08,
            "Longitude": -4.62
          }
        }
      }, {
        "CityName": "Jersey",
        "CityCode": "JER",
        "Position": {
          "Latitude": 0,
          "Longitude": 0
        },
        "Airport": {
          "AirportName": "Jersey",
          "AirportCode": "JER",
          "Position": {
            "Latitude": 49.21,
            "Longitude": -2.2
          }
        }
      }, {
        "CityName": "Leeds",
        "CityCode": "LBA",
        "Position": {
          "Latitude": 0,
          "Longitude": 0
        },
        "Airport": {
          "AirportName": "Leeds Bradford International",
          "AirportCode": "LBA",
          "Position": {
            "Latitude": 53.87,
            "Longitude": -1.66
          }
        }
      }, {
        "CityName": "London",
        "CityCode": "LON",
        "Position": {
          "Latitude": 0,
          "Longitude": 0
        },
        "Airport": [{
          "AirportName": "City Airport",
          "AirportCode": "LCY",
          "Position": {
            "Latitude": 51.51,
            "Longitude": 0.06
          }
        }, {
          "AirportName": "Gatwick",
          "AirportCode": "LGW",
          "Position": {
            "Latitude": 51.15,
            "Longitude": -0.19
          }
        }, {
          "AirportName": "Heathrow",
          "AirportCode": "LHR",
          "Position": {
            "Latitude": 51.48,
            "Longitude": -0.46
          }
        }, {
          "AirportName": "Stansted",
          "AirportCode": "STN",
          "Position": {
            "Latitude": 51.89,
            "Longitude": 0.24
          }
        }]
      }, {
        "CityName": "Manchester",
        "CityCode": "MAN",
        "Position": {
          "Latitude": 0,
          "Longitude": 0
        },
        "Airport": {
          "AirportName": "Manchester",
          "AirportCode": "MAN",
          "Position": {
            "Latitude": 53.35,
            "Longitude": -2.28
          }
        }
      }, {
        "CityName": "Newcastle",
        "CityCode": "NCL",
        "Position": {
          "Latitude": 0,
          "Longitude": 0
        },
        "Airport": {
          "AirportName": "Newcastle International",
          "AirportCode": "NCL",
          "Position": {
            "Latitude": 55.04,
            "Longitude": -1.69
          }
        }
      }, {
        "CityName": "Newquay",
        "CityCode": "NQY",
        "Position": {
          "Latitude": 0,
          "Longitude": 0
        },
        "Airport": {
          "AirportName": "Newquay",
          "AirportCode": "NQY",
          "Position": {
            "Latitude": 50.44,
            "Longitude": -5
          }
        }
      }, {
        "CityName": "Shetland Islands",
        "CityCode": "SDZ",
        "Position": {
          "Latitude": 0,
          "Longitude": 0
        },
        "Airport": {
          "AirportName": "Sumburgh",
          "AirportCode": "LSI",
          "Position": {
            "Latitude": 59.88,
            "Longitude": -1.3
          }
        }
      }, {
        "CityName": "Stornoway",
        "CityCode": "SYY",
        "Position": {
          "Latitude": 0,
          "Longitude": 0
        },
        "Airport": {
          "AirportName": "Stornoway",
          "AirportCode": "SYY",
          "Position": {
            "Latitude": 58.21,
            "Longitude": -6.33
          }
        }
      }, {
        "CityName": "Wick",
        "CityCode": "WIC",
        "Position": {
          "Latitude": 0,
          "Longitude": 0
        },
        "Airport": {
          "AirportName": "Wick",
          "AirportCode": "WIC",
          "Position": {
            "Latitude": 58.46,
            "Longitude": -3.09
          }
        }
      }]
    }, {
      "CountryName": "Grenada",
      "CountryCode": "GD",
      "City": {
        "CityName": "Grenada",
        "CityCode": "GND",
        "Position": {
          "Latitude": 0,
          "Longitude": 0
        },
        "Airport": {
          "AirportName": "Grenada",
          "AirportCode": "GND",
          "Position": {
            "Latitude": 12,
            "Longitude": -61.79
          }
        }
      }
    }, {
      "CountryName": "Ghana",
      "CountryCode": "GH",
      "City": {
        "CityName": "Accra",
        "CityCode": "ACC",
        "Position": {
          "Latitude": 0,
          "Longitude": 0
        },
        "Airport": {
          "AirportName": "Accra",
          "AirportCode": "ACC",
          "Position": {
            "Latitude": 5.6,
            "Longitude": -0.17
          }
        }
      }
    }, {
      "CountryName": "Gibraltar (UK)",
      "CountryCode": "GI",
      "City": {
        "CityName": "Gibraltar",
        "CityCode": "GIB",
        "Position": {
          "Latitude": 0,
          "Longitude": 0
        },
        "Airport": {
          "AirportName": "Gibraltar",
          "AirportCode": "GIB",
          "Position": {
            "Latitude": 36.15,
            "Longitude": -5.35
          }
        }
      }
    }, {
      "CountryName": "Greece",
      "CountryCode": "GR",
      "City": [{
        "CityName": "Athens",
        "CityCode": "ATH",
        "Position": {
          "Latitude": 0,
          "Longitude": 0
        },
        "Airport": {
          "AirportName": "Athens",
          "AirportCode": "ATH",
          "Position": {
            "Latitude": 37.94,
            "Longitude": 23.94
          }
        }
      }, {
        "CityName": "Corfu",
        "CityCode": "CFU",
        "Position": {
          "Latitude": 0,
          "Longitude": 0
        },
        "Airport": {
          "AirportName": "Kapodistrais",
          "AirportCode": "CFU",
          "Position": {
            "Latitude": 39.6,
            "Longitude": 19.91
          }
        }
      }, {
        "CityName": "Heraklion",
        "CityCode": "HER",
        "Position": {
          "Latitude": 0,
          "Longitude": 0
        },
        "Airport": {
          "AirportName": "Heraklion",
          "AirportCode": "HER",
          "Position": {
            "Latitude": 35.34,
            "Longitude": 25.18
          }
        }
      }, {
        "CityName": "Mykonos",
        "CityCode": "JMK",
        "Position": {
          "Latitude": 0,
          "Longitude": 0
        },
        "Airport": {
          "AirportName": "Mikonos",
          "AirportCode": "JMK",
          "Position": {
            "Latitude": 37.44,
            "Longitude": 25.35
          }
        }
      }, {
        "CityName": "Thira",
        "CityCode": "JTR",
        "Position": {
          "Latitude": 0,
          "Longitude": 0
        },
        "Airport": {
          "AirportName": "Thira",
          "AirportCode": "JTR",
          "Position": {
            "Latitude": 36.4,
            "Longitude": 25.48
          }
        }
      }, {
        "CityName": "Kos",
        "CityCode": "KGS",
        "Position": {
          "Latitude": 0,
          "Longitude": 0
        },
        "Airport": {
          "AirportName": "Kos",
          "AirportCode": "KGS",
          "Position": {
            "Latitude": 36.79,
            "Longitude": 27.09
          }
        }
      }, {
        "CityName": "Kalamata",
        "CityCode": "KLX",
        "Position": {
          "Latitude": 0,
          "Longitude": 0
        },
        "Airport": {
          "AirportName": "Kalamata",
          "AirportCode": "KLX",
          "Position": {
            "Latitude": 37.07,
            "Longitude": 22.03
          }
        }
      }, {
        "CityName": "Lemnos",
        "CityCode": "LXS",
        "Position": {
          "Latitude": 0,
          "Longitude": 0
        },
        "Airport": {
          "AirportName": "Lemnos",
          "AirportCode": "LXS",
          "Position": {
            "Latitude": 39.92,
            "Longitude": 25.24
          }
        }
      }, {
        "CityName": "Preveza",
        "CityCode": "PVK",
        "Position": {
          "Latitude": 0,
          "Longitude": 0
        },
        "Airport": {
          "AirportName": "Preveza",
          "AirportCode": "PVK",
          "Position": {
            "Latitude": 38.93,
            "Longitude": 20.77
          }
        }
      }, {
        "CityName": "Rhodes",
        "CityCode": "RHO",
        "Position": {
          "Latitude": 0,
          "Longitude": 0
        },
        "Airport": {
          "AirportName": "Rhodes",
          "AirportCode": "RHO",
          "Position": {
            "Latitude": 36.41,
            "Longitude": 28.09
          }
        }
      }, {
        "CityName": "Thessaloniki",
        "CityCode": "SKG",
        "Position": {
          "Latitude": 0,
          "Longitude": 0
        },
        "Airport": {
          "AirportName": "Thessaloniki",
          "AirportCode": "SKG",
          "Position": {
            "Latitude": 40.52,
            "Longitude": 22.97
          }
        }
      }]
    }, {
      "CountryName": "Guatemala",
      "CountryCode": "GT",
      "City": {
        "CityName": "Guatemala City",
        "CityCode": "GUA",
        "Position": {
          "Latitude": 0,
          "Longitude": 0
        },
        "Airport": {
          "AirportName": "Guatemala City",
          "AirportCode": "GUA",
          "Position": {
            "Latitude": 14.58,
            "Longitude": -90.53
          }
        }
      }
    }, {
      "CountryName": "Hong Kong",
      "CountryCode": "HK",
      "City": {
        "CityName": "Hong Kong",
        "CityCode": "HKG",
        "Position": {
          "Latitude": 0,
          "Longitude": 0
        },
        "Airport": {
          "AirportName": "Hong Kong",
          "AirportCode": "HKG",
          "Position": {
            "Latitude": 22.31,
            "Longitude": 113.91
          }
        }
      }
    }, {
      "CountryName": "Croatia",
      "CountryCode": "HR",
      "City": [{
        "CityName": "Dubrovnik",
        "CityCode": "DBV",
        "Position": {
          "Latitude": 0,
          "Longitude": 0
        },
        "Airport": {
          "AirportName": "Dubrovnik",
          "AirportCode": "DBV",
          "Position": {
            "Latitude": 42.56,
            "Longitude": 18.27
          }
        }
      }, {
        "CityName": "Split",
        "CityCode": "SPU",
        "Position": {
          "Latitude": 0,
          "Longitude": 0
        },
        "Airport": {
          "AirportName": "Split",
          "AirportCode": "SPU",
          "Position": {
            "Latitude": 43.54,
            "Longitude": 16.3
          }
        }
      }, {
        "CityName": "Zagreb",
        "CityCode": "ZAG",
        "Position": {
          "Latitude": 0,
          "Longitude": 0
        },
        "Airport": {
          "AirportName": "Zagreb",
          "AirportCode": "ZAG",
          "Position": {
            "Latitude": 45.74,
            "Longitude": 16.07
          }
        }
      }]
    }, {
      "CountryName": "Hungary",
      "CountryCode": "HU",
      "City": {
        "CityName": "Budapest",
        "CityCode": "BUD",
        "Position": {
          "Latitude": 0,
          "Longitude": 0
        },
        "Airport": {
          "AirportName": "Budapest",
          "AirportCode": "BUD",
          "Position": {
            "Latitude": 47.44,
            "Longitude": 19.26
          }
        }
      }
    }, {
      "CountryName": "Indonesia",
      "CountryCode": "ID",
      "City": [{
        "CityName": "Jakarta ",
        "CityCode": "JKT",
        "Position": {
          "Latitude": 0,
          "Longitude": 0
        },
        "Airport": {
          "AirportName": "Soekarno Hatta Intl",
          "AirportCode": "CGK",
          "Position": {
            "Latitude": -6.12,
            "Longitude": 106.66
          }
        }
      }, {
        "CityName": "Surabaya",
        "CityCode": "SUB",
        "Position": {
          "Latitude": 0,
          "Longitude": 0
        },
        "Airport": {
          "AirportName": "Surabaya",
          "AirportCode": "SUB",
          "Position": {
            "Latitude": -7.38,
            "Longitude": 112.78
          }
        }
      }]
    }, {
      "CountryName": "Ireland",
      "CountryCode": "IE",
      "City": [{
        "CityName": "Carrickfinn",
        "CityCode": "CFN",
        "Position": {
          "Latitude": 0,
          "Longitude": 0
        },
        "Airport": {
          "AirportName": "Carrickfinn",
          "AirportCode": "CFN",
          "Position": {
            "Latitude": 55.04,
            "Longitude": -8.34
          }
        }
      }, {
        "CityName": "Dublin",
        "CityCode": "DUB",
        "Position": {
          "Latitude": 0,
          "Longitude": 0
        },
        "Airport": {
          "AirportName": "Dublin",
          "AirportCode": "DUB",
          "Position": {
            "Latitude": 53.42,
            "Longitude": -6.27
          }
        }
      }, {
        "CityName": "Cork",
        "CityCode": "ORK",
        "Position": {
          "Latitude": 0,
          "Longitude": 0
        },
        "Airport": {
          "AirportName": "Cork",
          "AirportCode": "ORK",
          "Position": {
            "Latitude": 51.84,
            "Longitude": -8.49
          }
        }
      }, {
        "CityName": "Shannon",
        "CityCode": "SNN",
        "Position": {
          "Latitude": 0,
          "Longitude": 0
        },
        "Airport": {
          "AirportName": "Shannon",
          "AirportCode": "SNN",
          "Position": {
            "Latitude": 52.7,
            "Longitude": -8.92
          }
        }
      }]
    }, {
      "CountryName": "Israel",
      "CountryCode": "IL",
      "City": {
        "CityName": "Tel Aviv",
        "CityCode": "TLV",
        "Position": {
          "Latitude": 0,
          "Longitude": 0
        },
        "Airport": {
          "AirportName": "Tel Aviv",
          "AirportCode": "TLV",
          "Position": {
            "Latitude": 32.01,
            "Longitude": 34.88
          }
        }
      }
    }, {
      "CountryName": "India",
      "CountryCode": "IN",
      "City": [{
        "CityName": "Bengaluru",
        "CityCode": "BLR",
        "Position": {
          "Latitude": 0,
          "Longitude": 0
        },
        "Airport": {
          "AirportName": "Bangalore",
          "AirportCode": "BLR",
          "Position": {
            "Latitude": 13.2,
            "Longitude": 77.71
          }
        }
      }, {
        "CityName": "Mumbai",
        "CityCode": "BOM",
        "Position": {
          "Latitude": 0,
          "Longitude": 0
        },
        "Airport": {
          "AirportName": "Chhatrapati Shivaji Intl",
          "AirportCode": "BOM",
          "Position": {
            "Latitude": 19.09,
            "Longitude": 72.87
          }
        }
      }, {
        "CityName": "New Delhi",
        "CityCode": "DEL",
        "Position": {
          "Latitude": 0,
          "Longitude": 0
        },
        "Airport": {
          "AirportName": "Indira Gandhi Intl",
          "AirportCode": "DEL",
          "Position": {
            "Latitude": 28.57,
            "Longitude": 77.11
          }
        }
      }, {
        "CityName": "Hyderabad",
        "CityCode": "HYD",
        "Position": {
          "Latitude": 0,
          "Longitude": 0
        },
        "Airport": {
          "AirportName": "Rajiv Gandhi Intl",
          "AirportCode": "HYD",
          "Position": {
            "Latitude": 17.24,
            "Longitude": 78.43
          }
        }
      }, {
        "CityName": "Chennai",
        "CityCode": "MAA",
        "Position": {
          "Latitude": 0,
          "Longitude": 0
        },
        "Airport": {
          "AirportName": "Chennai",
          "AirportCode": "MAA",
          "Position": {
            "Latitude": 13,
            "Longitude": 80.18
          }
        }
      }]
    }, {
      "CountryName": "Italy",
      "CountryCode": "IT",
      "City": [{
        "CityName": "Brindisi",
        "CityCode": "BDS",
        "Position": {
          "Latitude": 0,
          "Longitude": 0
        },
        "Airport": {
          "AirportName": "Brindisi",
          "AirportCode": "BDS",
          "Position": {
            "Latitude": 40.66,
            "Longitude": 17.95
          }
        }
      }, {
        "CityName": "Bologna",
        "CityCode": "BLQ",
        "Position": {
          "Latitude": 0,
          "Longitude": 0
        },
        "Airport": {
          "AirportName": "Bologna",
          "AirportCode": "BLQ",
          "Position": {
            "Latitude": 44.53,
            "Longitude": 11.3
          }
        }
      }, {
        "CityName": "Bari",
        "CityCode": "BRI",
        "Position": {
          "Latitude": 0,
          "Longitude": 0
        },
        "Airport": {
          "AirportName": "Bari",
          "AirportCode": "BRI",
          "Position": {
            "Latitude": 41.14,
            "Longitude": 16.77
          }
        }
      }, {
        "CityName": "Cagliari",
        "CityCode": "CAG",
        "Position": {
          "Latitude": 0,
          "Longitude": 0
        },
        "Airport": {
          "AirportName": "Cagliari",
          "AirportCode": "CAG",
          "Position": {
            "Latitude": 39.25,
            "Longitude": 9.06
          }
        }
      }, {
        "CityName": "Catania",
        "CityCode": "CTA",
        "Position": {
          "Latitude": 0,
          "Longitude": 0
        },
        "Airport": {
          "AirportName": "Catania",
          "AirportCode": "CTA",
          "Position": {
            "Latitude": 37.47,
            "Longitude": 15.06
          }
        }
      }, {
        "CityName": "Florence",
        "CityCode": "FLR",
        "Position": {
          "Latitude": 0,
          "Longitude": 0
        },
        "Airport": {
          "AirportName": "Peretola",
          "AirportCode": "FLR",
          "Position": {
            "Latitude": 43.81,
            "Longitude": 11.2
          }
        }
      }, {
        "CityName": "Genoa",
        "CityCode": "GOA",
        "Position": {
          "Latitude": 0,
          "Longitude": 0
        },
        "Airport": {
          "AirportName": "Genoa",
          "AirportCode": "GOA",
          "Position": {
            "Latitude": 44.41,
            "Longitude": 8.84
          }
        }
      }, {
        "CityName": "Milan",
        "CityCode": "MIL",
        "Position": {
          "Latitude": 0,
          "Longitude": 0
        },
        "Airport": [{
          "AirportName": "Linate",
          "AirportCode": "LIN",
          "Position": {
            "Latitude": 45.45,
            "Longitude": 9.28
          }
        }, {
          "AirportName": "Malpensa",
          "AirportCode": "MXP",
          "Position": {
            "Latitude": 45.63,
            "Longitude": 8.72
          }
        }]
      }, {
        "CityName": "Naples",
        "CityCode": "NAP",
        "Position": {
          "Latitude": 0,
          "Longitude": 0
        },
        "Airport": {
          "AirportName": "Naples",
          "AirportCode": "NAP",
          "Position": {
            "Latitude": 40.88,
            "Longitude": 14.29
          }
        }
      }, {
        "CityName": "Olbia",
        "CityCode": "OLB",
        "Position": {
          "Latitude": 0,
          "Longitude": 0
        },
        "Airport": {
          "AirportName": "Olbia",
          "AirportCode": "OLB",
          "Position": {
            "Latitude": 40.9,
            "Longitude": 9.52
          }
        }
      }, {
        "CityName": "Palermo",
        "CityCode": "PMO",
        "Position": {
          "Latitude": 0,
          "Longitude": 0
        },
        "Airport": {
          "AirportName": "Palermo",
          "AirportCode": "PMO",
          "Position": {
            "Latitude": 38.18,
            "Longitude": 13.1
          }
        }
      }, {
        "CityName": "Pisa",
        "CityCode": "PSA",
        "Position": {
          "Latitude": 0,
          "Longitude": 0
        },
        "Airport": {
          "AirportName": "Pisa",
          "AirportCode": "PSA",
          "Position": {
            "Latitude": 43.68,
            "Longitude": 10.4
          }
        }
      }, {
        "CityName": "Rome",
        "CityCode": "ROM",
        "Position": {
          "Latitude": 0,
          "Longitude": 0
        },
        "Airport": {
          "AirportName": "Fiumicino",
          "AirportCode": "FCO",
          "Position": {
            "Latitude": 41.8,
            "Longitude": 12.24
          }
        }
      }, {
        "CityName": "Turin",
        "CityCode": "TRN",
        "Position": {
          "Latitude": 0,
          "Longitude": 0
        },
        "Airport": {
          "AirportName": "Turin",
          "AirportCode": "TRN",
          "Position": {
            "Latitude": 45.2,
            "Longitude": 7.65
          }
        }
      }, {
        "CityName": "Venice",
        "CityCode": "VCE",
        "Position": {
          "Latitude": 0,
          "Longitude": 0
        },
        "Airport": {
          "AirportName": "Venice",
          "AirportCode": "VCE",
          "Position": {
            "Latitude": 45.51,
            "Longitude": 12.35
          }
        }
      }, {
        "CityName": "Verona",
        "CityCode": "VRN",
        "Position": {
          "Latitude": 0,
          "Longitude": 0
        },
        "Airport": {
          "AirportName": "Valerio Catullo",
          "AirportCode": "VRN",
          "Position": {
            "Latitude": 45.4,
            "Longitude": 10.89
          }
        }
      }]
    }, {
      "CountryName": "Jamaica",
      "CountryCode": "JM",
      "City": [{
        "CityName": "Kingston",
        "CityCode": "KIN",
        "Position": {
          "Latitude": 0,
          "Longitude": 0
        },
        "Airport": {
          "AirportName": "Kingston",
          "AirportCode": "KIN",
          "Position": {
            "Latitude": 17.94,
            "Longitude": -76.79
          }
        }
      }, {
        "CityName": "Montego Bay",
        "CityCode": "MBJ",
        "Position": {
          "Latitude": 0,
          "Longitude": 0
        },
        "Airport": {
          "AirportName": "Montego Bay",
          "AirportCode": "MBJ",
          "Position": {
            "Latitude": 18.5,
            "Longitude": -77.91
          }
        }
      }]
    }, {
      "CountryName": "Jordan",
      "CountryCode": "JO",
      "City": {
        "CityName": "Amman",
        "CityCode": "AMM",
        "Position": {
          "Latitude": 0,
          "Longitude": 0
        },
        "Airport": {
          "AirportName": "Amman",
          "AirportCode": "AMM",
          "Position": {
            "Latitude": 31.72,
            "Longitude": 35.99
          }
        }
      }
    }, {
      "CountryName": "Japan",
      "CountryCode": "JP",
      "City": [{
        "CityName": "Fukuoka",
        "CityCode": "FUK",
        "Position": {
          "Latitude": 0,
          "Longitude": 0
        },
        "Airport": {
          "AirportName": "Fukuoka",
          "AirportCode": "FUK",
          "Position": {
            "Latitude": 33.58,
            "Longitude": 130.45
          }
        }
      }, {
        "CityName": "Kagoshima",
        "CityCode": "KOJ",
        "Position": {
          "Latitude": 0,
          "Longitude": 0
        },
        "Airport": {
          "AirportName": "Kagoshima",
          "AirportCode": "KOJ",
          "Position": {
            "Latitude": 31.8,
            "Longitude": 130.72
          }
        }
      }, {
        "CityName": "Nagoya",
        "CityCode": "NGO",
        "Position": {
          "Latitude": 0,
          "Longitude": 0
        },
        "Airport": {
          "AirportName": "Chubu Centrair",
          "AirportCode": "NGO",
          "Position": {
            "Latitude": 34.86,
            "Longitude": 136.81
          }
        }
      }, {
        "CityName": "Nagasaki",
        "CityCode": "NGS",
        "Position": {
          "Latitude": 0,
          "Longitude": 0
        },
        "Airport": {
          "AirportName": "Nagasaki",
          "AirportCode": "NGS",
          "Position": {
            "Latitude": 32.92,
            "Longitude": 129.91
          }
        }
      }, {
        "CityName": "Okinawa",
        "CityCode": "OKA",
        "Position": {
          "Latitude": 0,
          "Longitude": 0
        },
        "Airport": {
          "AirportName": "Naha",
          "AirportCode": "OKA",
          "Position": {
            "Latitude": 26.2,
            "Longitude": 127.65
          }
        }
      }, {
        "CityName": "Okayama",
        "CityCode": "OKJ",
        "Position": {
          "Latitude": 0,
          "Longitude": 0
        },
        "Airport": {
          "AirportName": "Okayama",
          "AirportCode": "OKJ",
          "Position": {
            "Latitude": 34.75,
            "Longitude": 133.86
          }
        }
      }, {
        "CityName": "Osaka",
        "CityCode": "OSA",
        "Position": {
          "Latitude": 0,
          "Longitude": 0
        },
        "Airport": [{
          "AirportName": "Itami",
          "AirportCode": "ITM",
          "Position": {
            "Latitude": 34.78,
            "Longitude": 135.44
          }
        }, {
          "AirportName": "Osaka",
          "AirportCode": "KIX",
          "Position": {
            "Latitude": 34.43,
            "Longitude": 135.23
          }
        }]
      }, {
        "CityName": "Sapporo",
        "CityCode": "SPK",
        "Position": {
          "Latitude": 0,
          "Longitude": 0
        },
        "Airport": {
          "AirportName": "Chitose",
          "AirportCode": "CTS",
          "Position": {
            "Latitude": 42.78,
            "Longitude": 141.69
          }
        }
      }, {
        "CityName": "Tokyo",
        "CityCode": "TYO",
        "Position": {
          "Latitude": 0,
          "Longitude": 0
        },
        "Airport": [{
          "AirportName": "Haneda",
          "AirportCode": "HND",
          "Position": {
            "Latitude": 35.55,
            "Longitude": 139.78
          }
        }, {
          "AirportName": "Narita",
          "AirportCode": "NRT",
          "Position": {
            "Latitude": 35.77,
            "Longitude": 140.39
          }
        }]
      }]
    }, {
      "CountryName": "Kenya",
      "CountryCode": "KE",
      "City": {
        "CityName": "Nairobi",
        "CityCode": "NBO",
        "Position": {
          "Latitude": 0,
          "Longitude": 0
        },
        "Airport": {
          "AirportName": "Nairobi",
          "AirportCode": "NBO",
          "Position": {
            "Latitude": -1.32,
            "Longitude": 36.93
          }
        }
      }
    }, {
      "CountryName": "St Kitts and Nevis",
      "CountryCode": "KN",
      "City": {
        "CityName": "St Kitts",
        "CityCode": "SKB",
        "Position": {
          "Latitude": 0,
          "Longitude": 0
        },
        "Airport": {
          "AirportName": "Robert L Bradshaw International",
          "AirportCode": "SKB",
          "Position": {
            "Latitude": 17.31,
            "Longitude": -62.72
          }
        }
      }
    }, {
      "CountryName": "South Korea",
      "CountryCode": "KR",
      "City": [{
        "CityName": "Busan",
        "CityCode": "PUS",
        "Position": {
          "Latitude": 0,
          "Longitude": 0
        },
        "Airport": {
          "AirportName": "Gimhae Airport",
          "AirportCode": "PUS",
          "Position": {
            "Latitude": 35.18,
            "Longitude": 128.94
          }
        }
      }, {
        "CityName": "Seoul",
        "CityCode": "SEL",
        "Position": {
          "Latitude": 0,
          "Longitude": 0
        },
        "Airport": {
          "AirportName": "Incheon International",
          "AirportCode": "ICN",
          "Position": {
            "Latitude": 37.46,
            "Longitude": 126.44
          }
        }
      }]
    }, {
      "CountryName": "Kuwait",
      "CountryCode": "KW",
      "City": {
        "CityName": "Kuwait",
        "CityCode": "KWI",
        "Position": {
          "Latitude": 0,
          "Longitude": 0
        },
        "Airport": {
          "AirportName": "Kuwait",
          "AirportCode": "KWI",
          "Position": {
            "Latitude": 29.23,
            "Longitude": 47.98
          }
        }
      }
    }, {
      "CountryName": "Cayman Islands",
      "CountryCode": "KY",
      "City": {
        "CityName": "Grand Cayman",
        "CityCode": "GCM",
        "Position": {
          "Latitude": 0,
          "Longitude": 0
        },
        "Airport": {
          "AirportName": "Grand Cayman",
          "AirportCode": "GCM",
          "Position": {
            "Latitude": 19.29,
            "Longitude": -81.36
          }
        }
      }
    }, {
      "CountryName": "Kazakhstan",
      "CountryCode": "KZ",
      "City": {
        "CityName": "Almaty",
        "CityCode": "ALA",
        "Position": {
          "Latitude": 0,
          "Longitude": 0
        },
        "Airport": {
          "AirportName": "Almaty",
          "AirportCode": "ALA",
          "Position": {
            "Latitude": 43.35,
            "Longitude": 77.04
          }
        }
      }
    }, {
      "CountryName": "Lebanon",
      "CountryCode": "LB",
      "City": {
        "CityName": "Beirut",
        "CityCode": "BEY",
        "Position": {
          "Latitude": 0,
          "Longitude": 0
        },
        "Airport": {
          "AirportName": "Beirut",
          "AirportCode": "BEY",
          "Position": {
            "Latitude": 33.82,
            "Longitude": 35.49
          }
        }
      }
    }, {
      "CountryName": "St Lucia",
      "CountryCode": "LC",
      "City": {
        "CityName": "St Lucia",
        "CityCode": "SLU",
        "Position": {
          "Latitude": 0,
          "Longitude": 0
        },
        "Airport": {
          "AirportName": "St Lucia",
          "AirportCode": "UVF",
          "Position": {
            "Latitude": 13.73,
            "Longitude": -60.95
          }
        }
      }
    }, {
      "CountryName": "Sri Lanka",
      "CountryCode": "LK",
      "City": {
        "CityName": "Colombo",
        "CityCode": "CMB",
        "Position": {
          "Latitude": 0,
          "Longitude": 0
        },
        "Airport": {
          "AirportName": "Bandarnayike International",
          "AirportCode": "CMB",
          "Position": {
            "Latitude": 7.18,
            "Longitude": 79.89
          }
        }
      }
    }, {
      "CountryName": "Lithuania",
      "CountryCode": "LT",
      "City": {
        "CityName": "Vilnius",
        "CityCode": "VNO",
        "Position": {
          "Latitude": 0,
          "Longitude": 0
        },
        "Airport": {
          "AirportName": "Vilnius",
          "AirportCode": "VNO",
          "Position": {
            "Latitude": 54.64,
            "Longitude": 25.29
          }
        }
      }
    }, {
      "CountryName": "Luxembourg",
      "CountryCode": "LU",
      "City": {
        "CityName": "Luxembourg",
        "CityCode": "LUX",
        "Position": {
          "Latitude": 0,
          "Longitude": 0
        },
        "Airport": {
          "AirportName": "Luxembourg",
          "AirportCode": "LUX",
          "Position": {
            "Latitude": 49.62,
            "Longitude": 6.2
          }
        }
      }
    }, {
      "CountryName": "Latvia",
      "CountryCode": "LV",
      "City": {
        "CityName": "Riga",
        "CityCode": "RIX",
        "Position": {
          "Latitude": 0,
          "Longitude": 0
        },
        "Airport": {
          "AirportName": "Riga",
          "AirportCode": "RIX",
          "Position": {
            "Latitude": 56.92,
            "Longitude": 23.97
          }
        }
      }
    }, {
      "CountryName": "Morocco",
      "CountryCode": "MA",
      "City": [{
        "CityName": "Casablanca",
        "CityCode": "CAS",
        "Position": {
          "Latitude": 0,
          "Longitude": 0
        },
        "Airport": {
          "AirportName": "Casablanca",
          "AirportCode": "CMN",
          "Position": {
            "Latitude": 33.36,
            "Longitude": -7.58
          }
        }
      }, {
        "CityName": "Marrakech",
        "CityCode": "RAK",
        "Position": {
          "Latitude": 0,
          "Longitude": 0
        },
        "Airport": {
          "AirportName": "Marrakech",
          "AirportCode": "RAK",
          "Position": {
            "Latitude": 31.61,
            "Longitude": -8.04
          }
        }
      }, {
        "CityName": "Tangier",
        "CityCode": "TNG",
        "Position": {
          "Latitude": 0,
          "Longitude": 0
        },
        "Airport": {
          "AirportName": "Tangier",
          "AirportCode": "TNG",
          "Position": {
            "Latitude": 35.73,
            "Longitude": -5.92
          }
        }
      }]
    }, {
      "CountryName": "Malta",
      "CountryCode": "MT",
      "City": {
        "CityName": "Malta",
        "CityCode": "MLA",
        "Position": {
          "Latitude": 0,
          "Longitude": 0
        },
        "Airport": {
          "AirportName": "Malta",
          "AirportCode": "MLA",
          "Position": {
            "Latitude": 35.86,
            "Longitude": 14.48
          }
        }
      }
    }, {
      "CountryName": "Mauritius",
      "CountryCode": "MU",
      "City": {
        "CityName": "Mauritius",
        "CityCode": "MRU",
        "Position": {
          "Latitude": 0,
          "Longitude": 0
        },
        "Airport": {
          "AirportName": "Mauritius",
          "AirportCode": "MRU",
          "Position": {
            "Latitude": -20.43,
            "Longitude": 57.68
          }
        }
      }
    }, {
      "CountryName": "Mexico",
      "CountryCode": "MX",
      "City": [{
        "CityName": "Leon\/Guanajuato",
        "CityCode": "BJX",
        "Position": {
          "Latitude": 0,
          "Longitude": 0
        },
        "Airport": {
          "AirportName": "Leon\/Guanajuato",
          "AirportCode": "BJX",
          "Position": {
            "Latitude": 20.99,
            "Longitude": -101.48
          }
        }
      }, {
        "CityName": "Cancun",
        "CityCode": "CUN",
        "Position": {
          "Latitude": 0,
          "Longitude": 0
        },
        "Airport": {
          "AirportName": "Cancun International",
          "AirportCode": "CUN",
          "Position": {
            "Latitude": 21.04,
            "Longitude": -86.87
          }
        }
      }, {
        "CityName": "Guadalajara",
        "CityCode": "GDL",
        "Position": {
          "Latitude": 0,
          "Longitude": 0
        },
        "Airport": {
          "AirportName": "Guadalajara",
          "AirportCode": "GDL",
          "Position": {
            "Latitude": 20.52,
            "Longitude": -103.31
          }
        }
      }, {
        "CityName": "Mexico City",
        "CityCode": "MEX",
        "Position": {
          "Latitude": 0,
          "Longitude": 0
        },
        "Airport": {
          "AirportName": "Mexico",
          "AirportCode": "MEX",
          "Position": {
            "Latitude": 19.44,
            "Longitude": -99.07
          }
        }
      }, {
        "CityName": "Morelia",
        "CityCode": "MLM",
        "Position": {
          "Latitude": 0,
          "Longitude": 0
        },
        "Airport": {
          "AirportName": "Morelia",
          "AirportCode": "MLM",
          "Position": {
            "Latitude": 19.85,
            "Longitude": -101.03
          }
        }
      }, {
        "CityName": "Monterrey",
        "CityCode": "MTY",
        "Position": {
          "Latitude": 0,
          "Longitude": 0
        },
        "Airport": {
          "AirportName": "Monterrey",
          "AirportCode": "MTY",
          "Position": {
            "Latitude": 25.78,
            "Longitude": -100.11
          }
        }
      }, {
        "CityName": "Puerto Vallarta",
        "CityCode": "PVR",
        "Position": {
          "Latitude": 0,
          "Longitude": 0
        },
        "Airport": {
          "AirportName": "Puerto Vallarta",
          "AirportCode": "PVR",
          "Position": {
            "Latitude": 20.68,
            "Longitude": -105.25
          }
        }
      }, {
        "CityName": "San Jose Del Cabo",
        "CityCode": "SJD",
        "Position": {
          "Latitude": 0,
          "Longitude": 0
        },
        "Airport": {
          "AirportName": "San Jose Del Cabo",
          "AirportCode": "SJD",
          "Position": {
            "Latitude": 23.15,
            "Longitude": -109.72
          }
        }
      }]
    }, {
      "CountryName": "Malaysia",
      "CountryCode": "MY",
      "City": {
        "CityName": "Kuala Lumpur",
        "CityCode": "KUL",
        "Position": {
          "Latitude": 0,
          "Longitude": 0
        },
        "Airport": {
          "AirportName": "Kuala Lumpur",
          "AirportCode": "KUL",
          "Position": {
            "Latitude": 2.74,
            "Longitude": 101.7
          }
        }
      }
    }, {
      "CountryName": "Namibia",
      "CountryCode": "NA",
      "City": {
        "CityName": "Windhoek",
        "CityCode": "WDH",
        "Position": {
          "Latitude": 0,
          "Longitude": 0
        },
        "Airport": {
          "AirportName": "Windhoek",
          "AirportCode": "WDH",
          "Position": {
            "Latitude": -22.48,
            "Longitude": 17.47
          }
        }
      }
    }, {
      "CountryName": "Nigeria",
      "CountryCode": "NG",
      "City": [{
        "CityName": "Abuja",
        "CityCode": "ABV",
        "Position": {
          "Latitude": 0,
          "Longitude": 0
        },
        "Airport": {
          "AirportName": "Abuja",
          "AirportCode": "ABV",
          "Position": {
            "Latitude": 9.01,
            "Longitude": 7.26
          }
        }
      }, {
        "CityName": "Lagos",
        "CityCode": "LOS",
        "Position": {
          "Latitude": 0,
          "Longitude": 0
        },
        "Airport": {
          "AirportName": "Lagos",
          "AirportCode": "LOS",
          "Position": {
            "Latitude": 6.58,
            "Longitude": 3.32
          }
        }
      }]
    }, {
      "CountryName": "Nicaragua",
      "CountryCode": "NI",
      "City": {
        "CityName": "Managua",
        "CityCode": "MGA",
        "Position": {
          "Latitude": 0,
          "Longitude": 0
        },
        "Airport": {
          "AirportName": "Managua",
          "AirportCode": "MGA",
          "Position": {
            "Latitude": 12.14,
            "Longitude": -86.17
          }
        }
      }
    }, {
      "CountryName": "Netherlands",
      "CountryCode": "NL",
      "City": [{
        "CityName": "Amsterdam",
        "CityCode": "AMS",
        "Position": {
          "Latitude": 0,
          "Longitude": 0
        },
        "Airport": {
          "AirportName": "Amsterdam",
          "AirportCode": "AMS",
          "Position": {
            "Latitude": 52.31,
            "Longitude": 4.76
          }
        }
      }, {
        "CityName": "Rotterdam",
        "CityCode": "RTM",
        "Position": {
          "Latitude": 0,
          "Longitude": 0
        },
        "Airport": {
          "AirportName": "Rotterdam",
          "AirportCode": "RTM",
          "Position": {
            "Latitude": 51.96,
            "Longitude": 4.44
          }
        }
      }]
    }, {
      "CountryName": "Norway",
      "CountryCode": "NO",
      "City": [{
        "CityName": "Bergen",
        "CityCode": "BGO",
        "Position": {
          "Latitude": 0,
          "Longitude": 0
        },
        "Airport": {
          "AirportName": "Flesland",
          "AirportCode": "BGO",
          "Position": {
            "Latitude": 60.29,
            "Longitude": 5.22
          }
        }
      }, {
        "CityName": "Oslo",
        "CityCode": "OSL",
        "Position": {
          "Latitude": 0,
          "Longitude": 0
        },
        "Airport": {
          "AirportName": "Oslo",
          "AirportCode": "OSL",
          "Position": {
            "Latitude": 60.2,
            "Longitude": 11.08
          }
        }
      }, {
        "CityName": "Stavanger",
        "CityCode": "SVG",
        "Position": {
          "Latitude": 0,
          "Longitude": 0
        },
        "Airport": {
          "AirportName": "Stavanger",
          "AirportCode": "SVG",
          "Position": {
            "Latitude": 58.88,
            "Longitude": 5.64
          }
        }
      }]
    }, {
      "CountryName": "New Zealand",
      "CountryCode": "NZ",
      "City": [{
        "CityName": "Auckland",
        "CityCode": "AKL",
        "Position": {
          "Latitude": 0,
          "Longitude": 0
        },
        "Airport": {
          "AirportName": "Auckland",
          "AirportCode": "AKL",
          "Position": {
            "Latitude": -37.01,
            "Longitude": 174.79
          }
        }
      }, {
        "CityName": "Christchurch",
        "CityCode": "CHC",
        "Position": {
          "Latitude": 0,
          "Longitude": 0
        },
        "Airport": {
          "AirportName": "Christchurch",
          "AirportCode": "CHC",
          "Position": {
            "Latitude": -43.49,
            "Longitude": 172.53
          }
        }
      }, {
        "CityName": "Wellington",
        "CityCode": "WLG",
        "Position": {
          "Latitude": 0,
          "Longitude": 0
        },
        "Airport": {
          "AirportName": "Wellington",
          "AirportCode": "WLG",
          "Position": {
            "Latitude": -41.33,
            "Longitude": 174.81
          }
        }
      }]
    }, {
      "CountryName": "Oman",
      "CountryCode": "OM",
      "City": {
        "CityName": "Muscat",
        "CityCode": "MCT",
        "Position": {
          "Latitude": 0,
          "Longitude": 0
        },
        "Airport": {
          "AirportName": "Muscat",
          "AirportCode": "MCT",
          "Position": {
            "Latitude": 23.59,
            "Longitude": 58.28
          }
        }
      }
    }, {
      "CountryName": "Panama",
      "CountryCode": "PA",
      "City": {
        "CityName": "Panama City",
        "CityCode": "PTY",
        "Position": {
          "Latitude": 0,
          "Longitude": 0
        },
        "Airport": {
          "AirportName": "Panama City",
          "AirportCode": "PTY",
          "Position": {
            "Latitude": 9.07,
            "Longitude": -79.38
          }
        }
      }
    }, {
      "CountryName": "Peru",
      "CountryCode": "PE",
      "City": {
        "CityName": "Lima",
        "CityCode": "LIM",
        "Position": {
          "Latitude": 0,
          "Longitude": 0
        },
        "Airport": {
          "AirportName": "Lima",
          "AirportCode": "LIM",
          "Position": {
            "Latitude": -12.02,
            "Longitude": -77.11
          }
        }
      }
    }, {
      "CountryName": "Pakistan",
      "CountryCode": "PK",
      "City": [{
        "CityName": "Islamabad",
        "CityCode": "ISB",
        "Position": {
          "Latitude": 0,
          "Longitude": 0
        },
        "Airport": {
          "AirportName": "Islamabad",
          "AirportCode": "ISB",
          "Position": {
            "Latitude": 33.62,
            "Longitude": 73.1
          }
        }
      }, {
        "CityName": "Karachi",
        "CityCode": "KHI",
        "Position": {
          "Latitude": 0,
          "Longitude": 0
        },
        "Airport": {
          "AirportName": "Karachi",
          "AirportCode": "KHI",
          "Position": {
            "Latitude": 24.91,
            "Longitude": 67.16
          }
        }
      }, {
        "CityName": "Lahore",
        "CityCode": "LHE",
        "Position": {
          "Latitude": 0,
          "Longitude": 0
        },
        "Airport": {
          "AirportName": "Lahore",
          "AirportCode": "LHE",
          "Position": {
            "Latitude": 31.52,
            "Longitude": 74.4
          }
        }
      }, {
        "CityName": "PESHAWAR",
        "CityCode": "PEW",
        "Position": {
          "Latitude": 0,
          "Longitude": 0
        }
      }]
    }, {
      "CountryName": "Poland",
      "CountryCode": "PL",
      "City": [{
        "CityName": "Gdansk",
        "CityCode": "GDN",
        "Position": {
          "Latitude": 0,
          "Longitude": 0
        },
        "Airport": {
          "AirportName": "Gdansk Lech Walesa",
          "AirportCode": "GDN",
          "Position": {
            "Latitude": 54.38,
            "Longitude": 18.47
          }
        }
      }, {
        "CityName": "Krakow",
        "CityCode": "KRK",
        "Position": {
          "Latitude": 0,
          "Longitude": 0
        },
        "Airport": {
          "AirportName": "Krakow",
          "AirportCode": "KRK",
          "Position": {
            "Latitude": 50.08,
            "Longitude": 19.78
          }
        }
      }, {
        "CityName": "Warsaw",
        "CityCode": "WAW",
        "Position": {
          "Latitude": 0,
          "Longitude": 0
        },
        "Airport": {
          "AirportName": "Warsaw",
          "AirportCode": "WAW",
          "Position": {
            "Latitude": 52.17,
            "Longitude": 20.97
          }
        }
      }]
    }, {
      "CountryName": "Puerto Rico",
      "CountryCode": "PR",
      "City": {
        "CityName": "San Juan",
        "CityCode": "SJU",
        "Position": {
          "Latitude": 0,
          "Longitude": 0
        },
        "Airport": {
          "AirportName": "Luis Munoz Marin",
          "AirportCode": "SJU",
          "Position": {
            "Latitude": 18.44,
            "Longitude": -66
          }
        }
      }
    }, {
      "CountryName": "Portugal",
      "CountryCode": "PT",
      "City": [{
        "CityName": "Faro",
        "CityCode": "FAO",
        "Position": {
          "Latitude": 0,
          "Longitude": 0
        },
        "Airport": {
          "AirportName": "Faro",
          "AirportCode": "FAO",
          "Position": {
            "Latitude": 37.01,
            "Longitude": -7.97
          }
        }
      }, {
        "CityName": "Funchal",
        "CityCode": "FNC",
        "Position": {
          "Latitude": 0,
          "Longitude": 0
        },
        "Airport": {
          "AirportName": "Funchal",
          "AirportCode": "FNC",
          "Position": {
            "Latitude": 32.69,
            "Longitude": -16.78
          }
        }
      }, {
        "CityName": "Lisbon",
        "CityCode": "LIS",
        "Position": {
          "Latitude": 0,
          "Longitude": 0
        },
        "Airport": {
          "AirportName": "Lisbon",
          "AirportCode": "LIS",
          "Position": {
            "Latitude": 38.77,
            "Longitude": -9.13
          }
        }
      }, {
        "CityName": "Porto",
        "CityCode": "OPO",
        "Position": {
          "Latitude": 0,
          "Longitude": 0
        },
        "Airport": {
          "AirportName": "Porto",
          "AirportCode": "OPO",
          "Position": {
            "Latitude": 41.24,
            "Longitude": -8.68
          }
        }
      }]
    }, {
      "CountryName": "Qatar",
      "CountryCode": "QA",
      "City": {
        "CityName": "Doha",
        "CityCode": "DOH",
        "Position": {
          "Latitude": 0,
          "Longitude": 0
        },
        "Airport": {
          "AirportName": "Doha",
          "AirportCode": "DOH",
          "Position": {
            "Latitude": 25.26,
            "Longitude": 51.57
          }
        }
      }
    }, {
      "CountryName": "Romania",
      "CountryCode": "RO",
      "City": {
        "CityName": "Bucharest",
        "CityCode": "BUH",
        "Position": {
          "Latitude": 0,
          "Longitude": 0
        },
        "Airport": {
          "AirportName": "Bucharest",
          "AirportCode": "OTP",
          "Position": {
            "Latitude": 44.57,
            "Longitude": 26.09
          }
        }
      }
    }, {
      "CountryName": "Russia",
      "CountryCode": "RU",
      "City": [{
        "CityName": "Adler\/Sochi",
        "CityCode": "AER",
        "Position": {
          "Latitude": 0,
          "Longitude": 0
        },
        "Airport": {
          "AirportName": "Adler\/Sochi",
          "AirportCode": "AER",
          "Position": {
            "Latitude": 43.44,
            "Longitude": 39.95
          }
        }
      }, {
        "CityName": "Krasnodar",
        "CityCode": "KRR",
        "Position": {
          "Latitude": 0,
          "Longitude": 0
        },
        "Airport": {
          "AirportName": "Krasnodar",
          "AirportCode": "KRR",
          "Position": {
            "Latitude": 45.04,
            "Longitude": 39.17
          }
        }
      }, {
        "CityName": "Samara",
        "CityCode": "KUF",
        "Position": {
          "Latitude": 0,
          "Longitude": 0
        },
        "Airport": {
          "AirportName": "Samara",
          "AirportCode": "KUF",
          "Position": {
            "Latitude": 53.5,
            "Longitude": 50.15
          }
        }
      }, {
        "CityName": "Kazan",
        "CityCode": "KZN",
        "Position": {
          "Latitude": 0,
          "Longitude": 0
        },
        "Airport": {
          "AirportName": "Kazan",
          "AirportCode": "KZN",
          "Position": {
            "Latitude": 55.61,
            "Longitude": 49.28
          }
        }
      }, {
        "CityName": "St Petersburg",
        "CityCode": "LED",
        "Position": {
          "Latitude": 0,
          "Longitude": 0
        },
        "Airport": {
          "AirportName": "St Petersburg",
          "AirportCode": "LED",
          "Position": {
            "Latitude": 59.8,
            "Longitude": 30.26
          }
        }
      }, {
        "CityName": "Moscow",
        "CityCode": "MOW",
        "Position": {
          "Latitude": 0,
          "Longitude": 0
        },
        "Airport": {
          "AirportName": "Domodedovo",
          "AirportCode": "DME",
          "Position": {
            "Latitude": 55.41,
            "Longitude": 37.91
          }
        }
      }, {
        "CityName": "PERM",
        "CityCode": "PEE",
        "Position": {
          "Latitude": 0,
          "Longitude": 0
        },
        "Airport": {
          "AirportName": "PERM",
          "AirportCode": "PEE",
          "Position": {
            "Latitude": 57.91,
            "Longitude": 56.02
          }
        }
      }, {
        "CityName": "Rostov",
        "CityCode": "ROV",
        "Position": {
          "Latitude": 0,
          "Longitude": 0
        },
        "Airport": {
          "AirportName": "Rostov",
          "AirportCode": "ROV",
          "Position": {
            "Latitude": 47.26,
            "Longitude": 39.82
          }
        }
      }, {
        "CityName": "Ufa",
        "CityCode": "UFA",
        "Position": {
          "Latitude": 0,
          "Longitude": 0
        },
        "Airport": {
          "AirportName": "Ufa",
          "AirportCode": "UFA",
          "Position": {
            "Latitude": 54.56,
            "Longitude": 55.87
          }
        }
      }]
    }, {
      "CountryName": "Saudi Arabia",
      "CountryCode": "SA",
      "City": [{
        "CityName": "Jeddah",
        "CityCode": "JED",
        "Position": {
          "Latitude": 0,
          "Longitude": 0
        },
        "Airport": {
          "AirportName": "King Abdul Aziz International",
          "AirportCode": "JED",
          "Position": {
            "Latitude": 21.68,
            "Longitude": 39.16
          }
        }
      }, {
        "CityName": "Riyadh",
        "CityCode": "RUH",
        "Position": {
          "Latitude": 0,
          "Longitude": 0
        },
        "Airport": {
          "AirportName": "King Khalid International",
          "AirportCode": "RUH",
          "Position": {
            "Latitude": 24.96,
            "Longitude": 46.71
          }
        }
      }]
    }, {
      "CountryName": "Sweden",
      "CountryCode": "SE",
      "City": [{
        "CityName": "Gothenburg",
        "CityCode": "GOT",
        "Position": {
          "Latitude": 0,
          "Longitude": 0
        },
        "Airport": {
          "AirportName": "Gothenburg",
          "AirportCode": "GOT",
          "Position": {
            "Latitude": 57.66,
            "Longitude": 12.29
          }
        }
      }, {
        "CityName": "Stockholm",
        "CityCode": "STO",
        "Position": {
          "Latitude": 0,
          "Longitude": 0
        },
        "Airport": [{
          "AirportName": "Arlanda",
          "AirportCode": "ARN",
          "Position": {
            "Latitude": 59.65,
            "Longitude": 17.92
          }
        }, {
          "AirportName": "Bromma",
          "AirportCode": "BMA",
          "Position": {
            "Latitude": 59.35,
            "Longitude": 17.94
          }
        }]
      }]
    }, {
      "CountryName": "Singapore",
      "CountryCode": "SG",
      "City": {
        "CityName": "Singapore",
        "CityCode": "SIN",
        "Position": {
          "Latitude": 0,
          "Longitude": 0
        },
        "Airport": {
          "AirportName": "Changi",
          "AirportCode": "SIN",
          "Position": {
            "Latitude": 1.36,
            "Longitude": 103.99
          }
        }
      }
    }, {
      "CountryName": "El Salvador",
      "CountryCode": "SV",
      "City": {
        "CityName": "San Salvador",
        "CityCode": "SAL",
        "Position": {
          "Latitude": 0,
          "Longitude": 0
        },
        "Airport": {
          "AirportName": "San Salvador",
          "AirportCode": "SAL",
          "Position": {
            "Latitude": 13.44,
            "Longitude": -89.06
          }
        }
      }
    }, {
      "CountryName": "Turks Caicos",
      "CountryCode": "TC",
      "City": {
        "CityName": "Providenciales",
        "CityCode": "PLS",
        "Position": {
          "Latitude": 0,
          "Longitude": 0
        },
        "Airport": {
          "AirportName": "Providenciales",
          "AirportCode": "PLS",
          "Position": {
            "Latitude": 21.77,
            "Longitude": -72.27
          }
        }
      }
    }, {
      "CountryName": "Thailand",
      "CountryCode": "TH",
      "City": [{
        "CityName": "Bangkok",
        "CityCode": "BKK",
        "Position": {
          "Latitude": 0,
          "Longitude": 0
        },
        "Airport": {
          "AirportName": "Bangkok",
          "AirportCode": "BKK",
          "Position": {
            "Latitude": 13.69,
            "Longitude": 100.75
          }
        }
      }, {
        "CityName": "Chiang Mai",
        "CityCode": "CNX",
        "Position": {
          "Latitude": 0,
          "Longitude": 0
        },
        "Airport": {
          "AirportName": "Chiang Mai",
          "AirportCode": "CNX",
          "Position": {
            "Latitude": 18.77,
            "Longitude": 98.96
          }
        }
      }, {
        "CityName": "Phuket",
        "CityCode": "HKT",
        "Position": {
          "Latitude": 0,
          "Longitude": 0
        },
        "Airport": {
          "AirportName": "Phuket",
          "AirportCode": "HKT",
          "Position": {
            "Latitude": 8.11,
            "Longitude": 98.31
          }
        }
      }]
    },